{
"type": "FeatureCollection",
"name": "scuoleprimarie_2012_2013",
"crs": { "type": "name", "properties": { "name": "urn:ogc:def:crs:OGC:1.3:CRS84" } },
"features": [
{ "type": "Feature", "properties": { "PROGGEN": 2013, "GRADO": "Scuola primaria", "CODVIA": 1016, "TIPOVIA": "VIA", "NOMEVIA": "DELLA MOSCOVA", "CIVICO": 64, "TIPO": "PARITARIA PRIVATA" }, "geometry": { "type": "Point", "coordinates": [ 9.18287693390057, 45.478253670205312 ] } },
{ "type": "Feature", "properties": { "PROGGEN": 2010, "GRADO": "Scuola primaria", "CODVIA": 1025, "TIPOVIA": "VIA", "NOMEVIA": "PALERMO", "CIVICO": 9, "TIPO": "STATALE" }, "geometry": { "type": "Point", "coordinates": [ 9.185383164166666, 45.475215714905843 ] } },
{ "type": "Feature", "properties": { "PROGGEN": 2027, "GRADO": "Scuola primaria", "CODVIA": 1034, "TIPOVIA": "VIA", "NOMEVIA": "MILAZZO", "CIVICO": 9, "TIPO": "PARITARIA PRIVATA" }, "geometry": { "type": "Point", "coordinates": [ 9.187580463282675, 45.47945151569639 ] } },
{ "type": "Feature", "properties": { "PROGGEN": 2029, "GRADO": "Scuola primaria", "CODVIA": 1050, "TIPOVIA": "VIA", "NOMEVIA": "APPIANI ANDREA", "CIVICO": 21, "TIPO": "PRIVATA NON PARITARIA" }, "geometry": { "type": "Point", "coordinates": [ 9.194081881962774, 45.478515865862192 ] } },
{ "type": "Feature", "properties": { "PROGGEN": 2036, "GRADO": "Scuola primaria", "CODVIA": 1062, "TIPOVIA": "BST", "NOMEVIA": "PORTA NUOVA", "CIVICO": 4, "TIPO": "STATALE" }, "geometry": { "type": "Point", "coordinates": [ 9.191185624878294, 45.480010541775336 ] } },
{ "type": "Feature", "properties": { "PROGGEN": 2090, "GRADO": "Scuola primaria", "CODVIA": 1086, "TIPOVIA": "VIA", "NOMEVIA": "SCIALOIA VITTORIO", "CIVICO": 19, "TIPO": "STATALE" }, "geometry": { "type": "Point", "coordinates": [ 9.179449953230032, 45.509170199113129 ] } },
{ "type": "Feature", "properties": { "PROGGEN": 2035, "GRADO": "Scuola primaria", "CODVIA": 1108, "TIPOVIA": "VIA", "NOMEVIA": "GIOIA MELCHIORRE", "CIVICO": 51, "TIPO": "PARITARIA PRIVATA" }, "geometry": { "type": "Point", "coordinates": [ 9.19842074552289, 45.487614187855876 ] } },
{ "type": "Feature", "properties": { "PROGGEN": 2032, "GRADO": "Scuola primaria", "CODVIA": 1130, "TIPOVIA": "VIA", "NOMEVIA": "JACOPO DAL VERME", "CIVICO": 10, "TIPO": "STATALE" }, "geometry": { "type": "Point", "coordinates": [ 9.187931509208529, 45.4873611910755 ] } },
{ "type": "Feature", "properties": { "PROGGEN": 2043, "GRADO": "Scuola primaria", "CODVIA": 1170, "TIPOVIA": "VLE", "NOMEVIA": "ZARA", "CIVICO": 96, "TIPO": "STATALE" }, "geometry": { "type": "Point", "coordinates": [ 9.195591380527828, 45.496551404628029 ] } },
{ "type": "Feature", "properties": { "PROGGEN": 2037, "GRADO": "Scuola primaria", "CODVIA": 1179, "TIPOVIA": "VIA", "NOMEVIA": "GALVANI LUIGI", "CIVICO": 7, "TIPO": "STATALE" }, "geometry": { "type": "Point", "coordinates": [ 9.200524261485437, 45.48557341748797 ] } },
{ "type": "Feature", "properties": { "PROGGEN": 2306, "GRADO": "Scuola primaria", "CODVIA": 1204, "TIPOVIA": "VIA", "NOMEVIA": "COPERNICO", "CIVICO": 9, "TIPO": "PARITARIA PRIVATA" }, "geometry": { "type": "Point", "coordinates": [ 9.201118914588934, 45.488062676654472 ] } },
{ "type": "Feature", "properties": { "PROGGEN": 2041, "GRADO": "Scuola primaria", "CODVIA": 1218, "TIPOVIA": "VIA", "NOMEVIA": "MUZIO EMANUELE", "CIVICO": 5, "TIPO": "STATALE" }, "geometry": { "type": "Point", "coordinates": [ 9.200343396122653, 45.490764646838315 ] } },
{ "type": "Feature", "properties": { "PROGGEN": 2077, "GRADO": "Scuola primaria", "CODVIA": 1237, "TIPOVIA": "VLE", "NOMEVIA": "BODIO LUIGI", "CIVICO": 22, "TIPO": "STATALE" }, "geometry": { "type": "Point", "coordinates": [ 9.16858039304411, 45.497622562411337 ] } },
{ "type": "Feature", "properties": { "PROGGEN": 2080, "GRADO": "Scuola primaria", "CODVIA": 1244, "TIPOVIA": "VIA", "NOMEVIA": "GUICCIARDI DIEGO", "CIVICO": 1, "TIPO": "STATALE" }, "geometry": { "type": "Point", "coordinates": [ 9.173468115517371, 45.501299444312664 ] } },
{ "type": "Feature", "properties": { "PROGGEN": 2078, "GRADO": "Scuola primaria", "CODVIA": 1267, "TIPOVIA": "VIA", "NOMEVIA": "BALDINUCCI FILIPPO", "CIVICO": 88, "TIPO": "PARITARIA PRIVATA" }, "geometry": { "type": "Point", "coordinates": [ 9.167377307349886, 45.502972746259793 ] } },
{ "type": "Feature", "properties": { "PROGGEN": 2081, "GRADO": "Scuola primaria", "CODVIA": 1313, "TIPOVIA": "VIA", "NOMEVIA": "CRESPI BENIGNO", "CIVICO": 1, "TIPO": "STATALE" }, "geometry": { "type": "Point", "coordinates": [ 9.186022369295058, 45.498572416261538 ] } },
{ "type": "Feature", "properties": { "PROGGEN": 2042, "GRADO": "Scuola primaria", "CODVIA": 1337, "TIPOVIA": "VIA", "NOMEVIA": "VEGLIA", "CIVICO": 80, "TIPO": "STATALE" }, "geometry": { "type": "Point", "coordinates": [ 9.196420277211793, 45.502835629238483 ] } },
{ "type": "Feature", "properties": { "PROGGEN": 2245, "GRADO": "Scuola primaria", "CODVIA": 1401, "TIPOVIA": "VIA", "NOMEVIA": "PAVONI LODOVICO", "CIVICO": 10, "TIPO": "PARITARIA PRIVATA" }, "geometry": { "type": "Point", "coordinates": [ 9.1865832230236, 45.501443846216389 ] } },
{ "type": "Feature", "properties": { "PROGGEN": 2040, "GRADO": "Scuola primaria", "CODVIA": 1419, "TIPOVIA": "VIA", "NOMEVIA": "BOTTELLI GIUSEPPE", "CIVICO": 1, "TIPO": "STATALE" }, "geometry": { "type": "Point", "coordinates": [ 9.210796387229843, 45.502953522253492 ] } },
{ "type": "Feature", "properties": { "PROGGEN": 2096, "GRADO": "Scuola primaria", "CODVIA": 1426, "TIPOVIA": "VIA", "NOMEVIA": "PIANELL SALVATORE", "CIVICO": 40, "TIPO": "STATALE" }, "geometry": { "type": "Point", "coordinates": [ 9.20341884454456, 45.507885719489956 ] } },
{ "type": "Feature", "properties": { "PROGGEN": 2094, "GRADO": "Scuola primaria", "CODVIA": 1446, "TIPOVIA": "VLE", "NOMEVIA": "SUZZANI GIOVANNI", "CIVICO": 64, "TIPO": "PARITARIA PRIVATA" }, "geometry": { "type": "Point", "coordinates": [ 9.199051092819108, 45.508423152189422 ] } },
{ "type": "Feature", "properties": { "PROGGEN": 2083, "GRADO": "Scuola primaria", "CODVIA": 1571, "TIPOVIA": "VIA", "NOMEVIA": "ISEO", "CIVICO": 7, "TIPO": "STATALE" }, "geometry": { "type": "Point", "coordinates": [ 9.173874720013588, 45.520051718049217 ] } },
{ "type": "Feature", "properties": { "PROGGEN": 2097, "GRADO": "Scuola primaria", "CODVIA": 1589, "TIPOVIA": "VIA", "NOMEVIA": "PASSERINI GIAN BATTISTA", "CIVICO": 4, "TIPO": "STATALE" }, "geometry": { "type": "Point", "coordinates": [ 9.193403241407337, 45.515514422152677 ] } },
{ "type": "Feature", "properties": { "PROGGEN": 2098, "GRADO": "Scuola primaria", "CODVIA": 1603, "TIPOVIA": "VIA", "NOMEVIA": "CESARI ANTONIO", "CIVICO": 38, "TIPO": "STATALE" }, "geometry": { "type": "Point", "coordinates": [ 9.18690253030781, 45.51964117303001 ] } },
{ "type": "Feature", "properties": { "PROGGEN": 2095, "GRADO": "Scuola primaria", "CODVIA": 1618, "TIPOVIA": "VIA", "NOMEVIA": "GOFFREDO DA BUSSERO", "CIVICO": 9, "TIPO": "STATALE" }, "geometry": { "type": "Point", "coordinates": [ 9.205985512724654, 45.51884004727642 ] } },
{ "type": "Feature", "properties": { "PROGGEN": 2088, "GRADO": "Scuola primaria", "CODVIA": 1632, "TIPOVIA": "VIA", "NOMEVIA": "TEANO", "CIVICO": 21, "TIPO": "PARITARIA PRIVATA" }, "geometry": { "type": "Point", "coordinates": [ 9.161474471963134, 45.528232373842833 ] } },
{ "type": "Feature", "properties": { "PROGGEN": 2089, "GRADO": "Scuola primaria", "CODVIA": 1642, "TIPOVIA": "VIA", "NOMEVIA": "FABRIANO", "CIVICO": 4, "TIPO": "STATALE" }, "geometry": { "type": "Point", "coordinates": [ 9.175196533090082, 45.515481141680738 ] } },
{ "type": "Feature", "properties": { "PROGGEN": 2086, "GRADO": "Scuola primaria", "CODVIA": 1647, "TIPOVIA": "PZA", "NOMEVIA": "GASPARRI PIETRO", "CIVICO": 6, "TIPO": "STATALE" }, "geometry": { "type": "Point", "coordinates": [ 9.16185918885256, 45.525893390887973 ] } },
{ "type": "Feature", "properties": { "PROGGEN": 2084, "GRADO": "Scuola primaria", "CODVIA": 1661, "TIPOVIA": "VIA", "NOMEVIA": "DEI BRASCHI", "CIVICO": 12, "TIPO": "STATALE" }, "geometry": { "type": "Point", "coordinates": [ 9.176679617386245, 45.526420889896933 ] } },
{ "type": "Feature", "properties": { "PROGGEN": 2303, "GRADO": "Scuola primaria", "CODVIA": 1666, "TIPOVIA": "VIA", "NOMEVIA": "VAL CISMON", "CIVICO": 9, "TIPO": "PARITARIA PRIVATA" }, "geometry": { "type": "Point", "coordinates": [ 9.194654910960439, 45.506098253009043 ] } },
{ "type": "Feature", "properties": { "PROGGEN": 2082, "GRADO": "Scuola primaria", "CODVIA": 1674, "TIPOVIA": "VIA", "NOMEVIA": "GABBRO", "CIVICO": 6, "TIPO": "STATALE" }, "geometry": { "type": "Point", "coordinates": [ 9.159811568534044, 45.514976426225715 ] } },
{ "type": "Feature", "properties": { "PROGGEN": 2085, "GRADO": "Scuola primaria", "CODVIA": 1687, "TIPOVIA": "VIA", "NOMEVIA": "DORA BALTEA", "CIVICO": 16, "TIPO": "STATALE" }, "geometry": { "type": "Point", "coordinates": [ 9.168196665292593, 45.527913151908862 ] } },
{ "type": "Feature", "properties": { "PROGGEN": 2091, "GRADO": "Scuola primaria", "CODVIA": 1701, "TIPOVIA": "VIA", "NOMEVIA": "MANN THOMAS", "CIVICO": 8, "TIPO": "STATALE" }, "geometry": { "type": "Point", "coordinates": [ 9.20860017719081, 45.523962780914275 ] } },
{ "type": "Feature", "properties": { "PROGGEN": 2046, "GRADO": "Scuola primaria", "CODVIA": 2122, "TIPOVIA": "VIA", "NOMEVIA": "CASATI FELICE", "CIVICO": 6, "TIPO": "STATALE" }, "geometry": { "type": "Point", "coordinates": [ 9.206647077172363, 45.477412662385198 ] } },
{ "type": "Feature", "properties": { "PROGGEN": 2045, "GRADO": "Scuola primaria", "CODVIA": 2134, "TIPOVIA": "VIA", "NOMEVIA": "VITRUVIO", "CIVICO": 41, "TIPO": "PARITARIA PRIVATA" }, "geometry": { "type": "Point", "coordinates": [ 9.206044740204232, 45.482587116748476 ] } },
{ "type": "Feature", "properties": { "PROGGEN": 2048, "GRADO": "Scuola primaria", "CODVIA": 2163, "TIPOVIA": "VIA", "NOMEVIA": "STOPPANI ANTONIO", "CIVICO": 1, "TIPO": "STATALE" }, "geometry": { "type": "Point", "coordinates": [ 9.211644521869159, 45.476138661175106 ] } },
{ "type": "Feature", "properties": { "PROGGEN": 2047, "GRADO": "Scuola primaria", "CODVIA": 2167, "TIPOVIA": "VIA", "NOMEVIA": "MATTEUCCI CARLO", "CIVICO": 3, "TIPO": "STATALE" }, "geometry": { "type": "Point", "coordinates": [ 9.216237634927962, 45.481259606509674 ] } },
{ "type": "Feature", "properties": { "PROGGEN": 2150, "GRADO": "Scuola primaria", "CODVIA": 2178, "TIPOVIA": "VLE", "NOMEVIA": "MAJNO LUIGI", "CIVICO": 39, "TIPO": "PARITARIA PRIVATA" }, "geometry": { "type": "Point", "coordinates": [ 9.20508111816137, 45.472397284640387 ] } },
{ "type": "Feature", "properties": { "PROGGEN": 2049, "GRADO": "Scuola primaria", "CODVIA": 2188, "TIPOVIA": "VIA", "NOMEVIA": "PISACANE CARLO", "CIVICO": 9, "TIPO": "STATALE" }, "geometry": { "type": "Point", "coordinates": [ 9.211062821819331, 45.469422643184011 ] } },
{ "type": "Feature", "properties": { "PROGGEN": 2118, "GRADO": "Scuola primaria", "CODVIA": 2208, "TIPOVIA": "PZA", "NOMEVIA": "LEONARDO DA VINCI", "CIVICO": 2, "TIPO": "STATALE" }, "geometry": { "type": "Point", "coordinates": [ 9.224426293525188, 45.47758961047905 ] } },
{ "type": "Feature", "properties": { "PROGGEN": 2246, "GRADO": "Scuola primaria", "CODVIA": 2221, "TIPOVIA": "VIA", "NOMEVIA": "CLERICETTI CELESTE", "CIVICO": 22, "TIPO": "STATALE" }, "geometry": { "type": "Point", "coordinates": [ 9.235673556232832, 45.478074513492537 ] } },
{ "type": "Feature", "properties": { "PROGGEN": 2127, "GRADO": "Scuola primaria", "CODVIA": 2221, "TIPOVIA": "VIA", "NOMEVIA": "CLERICETTI CELESTE", "CIVICO": 45, "TIPO": "PARITARIA PRIVATA" }, "geometry": { "type": "Point", "coordinates": [ 9.235251828757578, 45.479609016811303 ] } },
{ "type": "Feature", "properties": { "PROGGEN": 2120, "GRADO": "Scuola primaria", "CODVIA": 2229, "TIPOVIA": "VIA", "NOMEVIA": "PORPORA NICOLA ANTONIO", "CIVICO": 11, "TIPO": "STATALE" }, "geometry": { "type": "Point", "coordinates": [ 9.2206092562379, 45.486104369605584 ] } },
{ "type": "Feature", "properties": { "PROGGEN": 2107, "GRADO": "Scuola primaria", "CODVIA": 2258, "TIPOVIA": "VIA", "NOMEVIA": "VENINI GIULIO E CORRADO", "CIVICO": 80, "TIPO": "STATALE" }, "geometry": { "type": "Point", "coordinates": [ 9.217240945641969, 45.494806077541007 ] } },
{ "type": "Feature", "properties": { "PROGGEN": 2112, "GRADO": "Scuola primaria", "CODVIA": 2263, "TIPOVIA": "VLE", "NOMEVIA": "BRIANZA", "CIVICO": 14, "TIPO": "STATALE" }, "geometry": { "type": "Point", "coordinates": [ 9.213498254931588, 45.48759069218486 ] } },
{ "type": "Feature", "properties": { "PROGGEN": 2103, "GRADO": "Scuola primaria", "CODVIA": 2310, "TIPOVIA": "VIA", "NOMEVIA": "GIACOSA GIUSEPPE", "CIVICO": 46, "TIPO": "STATALE" }, "geometry": { "type": "Point", "coordinates": [ 9.221643243779726, 45.494840658033702 ] } },
{ "type": "Feature", "properties": { "PROGGEN": 2106, "GRADO": "Scuola primaria", "CODVIA": 2328, "TIPOVIA": "VIA", "NOMEVIA": "RUSSO VINCENZO", "CIVICO": 27, "TIPO": "STATALE" }, "geometry": { "type": "Point", "coordinates": [ 9.228208387622681, 45.497840015187414 ] } },
{ "type": "Feature", "properties": { "PROGGEN": 2108, "GRADO": "Scuola primaria", "CODVIA": 2356, "TIPOVIA": "VIA", "NOMEVIA": "SANT' ERLEMBARDO", "CIVICO": 4, "TIPO": "STATALE" }, "geometry": { "type": "Point", "coordinates": [ 9.220441839906531, 45.505493236478607 ] } },
{ "type": "Feature", "properties": { "PROGGEN": 2111, "GRADO": "Scuola primaria", "CODVIA": 2385, "TIPOVIA": "VIA", "NOMEVIA": "RICCARDI PADRE PLACIDO", "CIVICO": 5, "TIPO": "PARITARIA PRIVATA" }, "geometry": { "type": "Point", "coordinates": [ 9.238972158075791, 45.501436424242208 ] } },
{ "type": "Feature", "properties": { "PROGGEN": 2135, "GRADO": "Scuola primaria", "CODVIA": 2395, "TIPOVIA": "VIA", "NOMEVIA": "CARNIA", "CIVICO": 32, "TIPO": "STATALE" }, "geometry": { "type": "Point", "coordinates": [ 9.235989345781398, 45.495081722266555 ] } },
{ "type": "Feature", "properties": { "PROGGEN": 2132, "GRADO": "Scuola primaria", "CODVIA": 2397, "TIPOVIA": "VIA", "NOMEVIA": "PUSIANO", "CIVICO": 57, "TIPO": "PARITARIA PRIVATA" }, "geometry": { "type": "Point", "coordinates": [ 9.246440377321312, 45.500538123787457 ] } },
{ "type": "Feature", "properties": { "PROGGEN": 2102, "GRADO": "Scuola primaria", "CODVIA": 2413, "TIPOVIA": "VIA", "NOMEVIA": "SAN MAMETE", "CIVICO": 11, "TIPO": "STATALE" }, "geometry": { "type": "Point", "coordinates": [ 9.247866412389945, 45.510928942375017 ] } },
{ "type": "Feature", "properties": { "PROGGEN": 2116, "GRADO": "Scuola primaria", "CODVIA": 2427, "TIPOVIA": "VIA", "NOMEVIA": "BAZZINI ANTONIO", "CIVICO": 10, "TIPO": "PARITARIA PRIVATA" }, "geometry": { "type": "Point", "coordinates": [ 9.225261547156622, 45.481795170172148 ] } },
{ "type": "Feature", "properties": { "PROGGEN": 2104, "GRADO": "Scuola primaria", "CODVIA": 2448, "TIPOVIA": "VIA", "NOMEVIA": "SANT' UGUZZONE", "CIVICO": 10, "TIPO": "STATALE" }, "geometry": { "type": "Point", "coordinates": [ 9.225552770810573, 45.520721333746586 ] } },
{ "type": "Feature", "properties": { "PROGGEN": 2000, "GRADO": "Scuola primaria", "CODVIA": 2456, "TIPOVIA": "VIA", "NOMEVIA": "STEFANARDO DA VIMERCATE", "CIVICO": 14, "TIPO": "STATALE" }, "geometry": { "type": "Point", "coordinates": [ 9.226482239850558, 45.506340849050723 ] } },
{ "type": "Feature", "properties": { "PROGGEN": 2101, "GRADO": "Scuola primaria", "CODVIA": 2467, "TIPOVIA": "VIA", "NOMEVIA": "CESALPINO ANDREA", "CIVICO": 38, "TIPO": "STATALE" }, "geometry": { "type": "Point", "coordinates": [ 9.232290579014073, 45.507617418996745 ] } },
{ "type": "Feature", "properties": { "PROGGEN": 2110, "GRADO": "Scuola primaria", "CODVIA": 2514, "TIPOVIA": "VIA", "NOMEVIA": "DE LA SALLE S GIOV. BATTISTA", "CIVICO": 5, "TIPO": "PARITARIA PRIVATA" }, "geometry": { "type": "Point", "coordinates": [ 9.241587562802168, 45.502520902055537 ] } },
{ "type": "Feature", "properties": { "PROGGEN": 2109, "GRADO": "Scuola primaria", "CODVIA": 2521, "TIPOVIA": "VIA", "NOMEVIA": "BOTTEGO VITTORIO", "CIVICO": 4, "TIPO": "STATALE" }, "geometry": { "type": "Point", "coordinates": [ 9.243826044446788, 45.503622235567995 ] } },
{ "type": "Feature", "properties": { "PROGGEN": 2100, "GRADO": "Scuola primaria", "CODVIA": 2614, "TIPOVIA": "VIA", "NOMEVIA": "CARNOVALI GIOVANNI", "CIVICO": 19, "TIPO": "STATALE" }, "geometry": { "type": "Point", "coordinates": [ 9.230085150239018, 45.512941032081869 ] } },
{ "type": "Feature", "properties": { "PROGGEN": 2105, "GRADO": "Scuola primaria", "CODVIA": 2632, "TIPOVIA": "VIA", "NOMEVIA": "MATTEI GIANFRANCO", "CIVICO": 12, "TIPO": "STATALE" }, "geometry": { "type": "Point", "coordinates": [ 9.223384986559847, 45.514391987221813 ] } },
{ "type": "Feature", "properties": { "PROGGEN": 2248, "GRADO": "Scuola primaria", "CODVIA": 2634, "TIPOVIA": "VIA", "NOMEVIA": "PINI TOMMASO", "CIVICO": 1, "TIPO": "PARITARIA PRIVATA" }, "geometry": { "type": "Point", "coordinates": [ 9.240476925599134, 45.484669311622781 ] } },
{ "type": "Feature", "properties": { "PROGGEN": 2131, "GRADO": "Scuola primaria", "CODVIA": 2634, "TIPOVIA": "VIA", "NOMEVIA": "PINI TOMMASO", "CIVICO": 3, "TIPO": "STATALE" }, "geometry": { "type": "Point", "coordinates": [ 9.240379869280209, 45.485407776770835 ] } },
{ "type": "Feature", "properties": { "PROGGEN": 2302, "GRADO": "Scuola primaria", "CODVIA": 2638, "TIPOVIA": "VIA", "NOMEVIA": "PISANI DOSSI CARLO ALBERTO", "CIVICO": 16, "TIPO": "PRIVATA NON PARITARIA" }, "geometry": { "type": "Point", "coordinates": [ 9.244394345483023, 45.48731940567987 ] } },
{ "type": "Feature", "properties": { "PROGGEN": 2134, "GRADO": "Scuola primaria", "CODVIA": 2652, "TIPOVIA": "VIA", "NOMEVIA": "FELTRE", "CIVICO": 68, "TIPO": "STATALE" }, "geometry": { "type": "Point", "coordinates": [ 9.24453735474682, 45.490682317398822 ] } },
{ "type": "Feature", "properties": { "PROGGEN": 2129, "GRADO": "Scuola primaria", "CODVIA": 2659, "TIPOVIA": "VIA", "NOMEVIA": "ROMBON", "CIVICO": 78, "TIPO": "PARITARIA PRIVATA" }, "geometry": { "type": "Point", "coordinates": [ 9.252154556703761, 45.486179193614205 ] } },
{ "type": "Feature", "properties": { "PROGGEN": 2130, "GRADO": "Scuola primaria", "CODVIA": 2690, "TIPOVIA": "VIA", "NOMEVIA": "CIMA CAMILLO E OTTO", "CIVICO": 15, "TIPO": "STATALE" }, "geometry": { "type": "Point", "coordinates": [ 9.247343628598928, 45.471899577185887 ] } },
{ "type": "Feature", "properties": { "PROGGEN": 2021, "GRADO": "Scuola primaria", "CODVIA": 3020, "TIPOVIA": "VIA", "NOMEVIA": "CORRIDONI FILIPPO", "CIVICO": 34, "TIPO": "STATALE" }, "geometry": { "type": "Point", "coordinates": [ 9.203841289341284, 45.463534804578302 ] } },
{ "type": "Feature", "properties": { "PROGGEN": 2017, "GRADO": "Scuola primaria", "CODVIA": 3031, "TIPOVIA": "VIA", "NOMEVIA": "CONSERVATORIO", "CIVICO": 4, "TIPO": "PARITARIA PRIVATA" }, "geometry": { "type": "Point", "coordinates": [ 9.203271508975224, 45.464284613327656 ] } },
{ "type": "Feature", "properties": { "PROGGEN": 2026, "GRADO": "Scuola primaria", "CODVIA": 3033, "TIPOVIA": "VIA", "NOMEVIA": "PASSIONE", "CIVICO": 12, "TIPO": "STATALE" }, "geometry": { "type": "Point", "coordinates": [ 9.202136769160168, 45.464996984267756 ] } },
{ "type": "Feature", "properties": { "PROGGEN": 2052, "GRADO": "Scuola primaria", "CODVIA": 3073, "TIPOVIA": "VIA", "NOMEVIA": "MOROSINI EMILIO", "CIVICO": 11, "TIPO": "STATALE" }, "geometry": { "type": "Point", "coordinates": [ 9.211428746603362, 45.460424322021723 ] } },
{ "type": "Feature", "properties": { "PROGGEN": 2053, "GRADO": "Scuola primaria", "CODVIA": 3087, "TIPOVIA": "VIA", "NOMEVIA": "BONVESIN DE LA RIVA", "CIVICO": 12, "TIPO": "PARITARIA PRIVATA" }, "geometry": { "type": "Point", "coordinates": [ 9.212163974804064, 45.463677146675884 ] } },
{ "type": "Feature", "properties": { "PROGGEN": 2123, "GRADO": "Scuola primaria", "CODVIA": 3102, "TIPOVIA": "VLE", "NOMEVIA": "ROMAGNA", "CIVICO": 16, "TIPO": "STATALE" }, "geometry": { "type": "Point", "coordinates": [ 9.224117838779328, 45.470304890330993 ] } },
{ "type": "Feature", "properties": { "PROGGEN": 2119, "GRADO": "Scuola primaria", "CODVIA": 3140, "TIPOVIA": "VLE", "NOMEVIA": "MUGELLO", "CIVICO": 5, "TIPO": "STATALE" }, "geometry": { "type": "Point", "coordinates": [ 9.223535103846173, 45.46122251645852 ] } },
{ "type": "Feature", "properties": { "PROGGEN": 2015, "GRADO": "Scuola primaria", "CODVIA": 3146, "TIPOVIA": "VIA", "NOMEVIA": "DELLA COMMENDA", "CIVICO": 5, "TIPO": "PARITARIA PRIVATA" }, "geometry": { "type": "Point", "coordinates": [ 9.198860958637676, 45.459176855945501 ] } },
{ "type": "Feature", "properties": { "PROGGEN": 2028, "GRADO": "Scuola primaria", "CODVIA": 3150, "TIPOVIA": "VIA", "NOMEVIA": "PACE", "CIVICO": 10, "TIPO": "PARITARIA PRIVATA" }, "geometry": { "type": "Point", "coordinates": [ 9.202948159001512, 45.458807612858081 ] } },
{ "type": "Feature", "properties": { "PROGGEN": 2125, "GRADO": "Scuola primaria", "CODVIA": 3183, "TIPOVIA": "VIA", "NOMEVIA": "GOLDONI CARLO", "CIVICO": 68, "TIPO": "PARITARIA PRIVATA" }, "geometry": { "type": "Point", "coordinates": [ 9.220408181581373, 45.469248267890549 ] } },
{ "type": "Feature", "properties": { "PROGGEN": 2124, "GRADO": "Scuola primaria", "CODVIA": 3228, "TIPOVIA": "VIA", "NOMEVIA": "AMADEO GIOVANNI ANTONIO", "CIVICO": 11, "TIPO": "PARITARIA PRIVATA" }, "geometry": { "type": "Point", "coordinates": [ 9.231702232626214, 45.471077233543859 ] } },
{ "type": "Feature", "properties": { "PROGGEN": 2113, "GRADO": "Scuola primaria", "CODVIA": 3262, "TIPOVIA": "VLE", "NOMEVIA": "CORSICA", "CIVICO": 82, "TIPO": "PARITARIA PRIVATA" }, "geometry": { "type": "Point", "coordinates": [ 9.234168824702181, 45.461963180058724 ] } },
{ "type": "Feature", "properties": { "PROGGEN": 2114, "GRADO": "Scuola primaria", "CODVIA": 3277, "TIPOVIA": "VIA", "NOMEVIA": "CARDINALE MEZZOFANTI", "CIVICO": 25, "TIPO": "STATALE" }, "geometry": { "type": "Point", "coordinates": [ 9.234950466451602, 45.464752254638462 ] } },
{ "type": "Feature", "properties": { "PROGGEN": 2054, "GRADO": "Scuola primaria", "CODVIA": 3338, "TIPOVIA": "VIA", "NOMEVIA": "MONTE VELINO", "CIVICO": 2, "TIPO": "STATALE" }, "geometry": { "type": "Point", "coordinates": [ 9.224509515861802, 45.452866974173624 ] } },
{ "type": "Feature", "properties": { "PROGGEN": 2141, "GRADO": "Scuola primaria", "CODVIA": 3342, "TIPOVIA": "VIA", "NOMEVIA": "SORDELLO LUIGI", "CIVICO": 7, "TIPO": "STATALE" }, "geometry": { "type": "Point", "coordinates": [ 9.24572934758576, 45.443935679162628 ] } },
{ "type": "Feature", "properties": { "PROGGEN": 2139, "GRADO": "Scuola primaria", "CODVIA": 3350, "TIPOVIA": "VIA", "NOMEVIA": "MELERI GEREMIA", "CIVICO": 14, "TIPO": "STATALE" }, "geometry": { "type": "Point", "coordinates": [ 9.247522287706254, 45.456577965588231 ] } },
{ "type": "Feature", "properties": { "PROGGEN": 2138, "GRADO": "Scuola primaria", "CODVIA": 3366, "TIPOVIA": "VIA", "NOMEVIA": "DECORATI AL VALOR CIVILE", "CIVICO": 10, "TIPO": "STATALE" }, "geometry": { "type": "Point", "coordinates": [ 9.241344205676858, 45.460499595708747 ] } },
{ "type": "Feature", "properties": { "PROGGEN": 2140, "GRADO": "Scuola primaria", "CODVIA": 3371, "TIPOVIA": "LGO", "NOMEVIA": "GUERRIERI GONZAGA ANSELMO", "CIVICO": 4, "TIPO": "STATALE" }, "geometry": { "type": "Point", "coordinates": [ 9.251737208364903, 45.445013541997504 ] } },
{ "type": "Feature", "properties": { "PROGGEN": 2142, "GRADO": "Scuola primaria", "CODVIA": 3375, "TIPOVIA": "VIA", "NOMEVIA": "UCELLI DI NEMI GUIDO", "CIVICO": 54, "TIPO": "STATALE" }, "geometry": { "type": "Point", "coordinates": [ 9.264083403011572, 45.437701099984345 ] } },
{ "type": "Feature", "properties": { "PROGGEN": 2018, "GRADO": "Scuola primaria", "CODVIA": 4021, "TIPOVIA": "VIA", "NOMEVIA": "QUADRONNO", "CIVICO": 15, "TIPO": "PARITARIA PRIVATA" }, "geometry": { "type": "Point", "coordinates": [ 9.192549493380497, 45.454320161881689 ] } },
{ "type": "Feature", "properties": { "PROGGEN": 2020, "GRADO": "Scuola primaria", "CODVIA": 4021, "TIPOVIA": "VIA", "NOMEVIA": "QUADRONNO", "CIVICO": 32, "TIPO": "STATALE" }, "geometry": { "type": "Point", "coordinates": [ 9.194681626307762, 45.454076361457965 ] } },
{ "type": "Feature", "properties": { "PROGGEN": 2063, "GRADO": "Scuola primaria", "CODVIA": 4050, "TIPOVIA": "VIA", "NOMEVIA": "BOCCONI FERDINANDO", "CIVICO": 17, "TIPO": "STATALE" }, "geometry": { "type": "Point", "coordinates": [ 9.190761588954656, 45.449080454766907 ] } },
{ "type": "Feature", "properties": { "PROGGEN": 2060, "GRADO": "Scuola primaria", "CODVIA": 4057, "TIPOVIA": "VIA", "NOMEVIA": "ROMANO GIULIO", "CIVICO": 2, "TIPO": "STATALE" }, "geometry": { "type": "Point", "coordinates": [ 9.19859287602358, 45.448500919978883 ] } },
{ "type": "Feature", "properties": { "PROGGEN": 2056, "GRADO": "Scuola primaria", "CODVIA": 4070, "TIPOVIA": "VIA", "NOMEVIA": "VASARI GIORGIO", "CIVICO": 16, "TIPO": "PARITARIA PRIVATA" }, "geometry": { "type": "Point", "coordinates": [ 9.206908941727491, 45.453499719290868 ] } },
{ "type": "Feature", "properties": { "PROGGEN": 2055, "GRADO": "Scuola primaria", "CODVIA": 4078, "TIPOVIA": "VIA", "NOMEVIA": "COLLETTA PIETRO", "CIVICO": 49, "TIPO": "STATALE" }, "geometry": { "type": "Point", "coordinates": [ 9.211789514513839, 45.448912093375313 ] } },
{ "type": "Feature", "properties": { "PROGGEN": 2153, "GRADO": "Scuola primaria", "CODVIA": 4100, "TIPOVIA": "VLE", "NOMEVIA": "PUGLIE", "CIVICO": 4, "TIPO": "STATALE" }, "geometry": { "type": "Point", "coordinates": [ 9.224446474199802, 45.444973495318706 ] } },
{ "type": "Feature", "properties": { "PROGGEN": 2144, "GRADO": "Scuola primaria", "CODVIA": 4142, "TIPOVIA": "VIA", "NOMEVIA": "VALLARSA", "CIVICO": 19, "TIPO": "STATALE" }, "geometry": { "type": "Point", "coordinates": [ 9.210337085523015, 45.442697206805363 ] } },
{ "type": "Feature", "properties": { "PROGGEN": 2159, "GRADO": "Scuola primaria", "CODVIA": 4147, "TIPOVIA": "VIA", "NOMEVIA": "TAGLIAMENTO", "CIVICO": 12, "TIPO": "PARITARIA PRIVATA" }, "geometry": { "type": "Point", "coordinates": [ 9.212755243573735, 45.443542435098003 ] } },
{ "type": "Feature", "properties": { "PROGGEN": 2143, "GRADO": "Scuola primaria", "CODVIA": 4159, "TIPOVIA": "VIA", "NOMEVIA": "POLESINE", "CIVICO": 12, "TIPO": "STATALE" }, "geometry": { "type": "Point", "coordinates": [ 9.222659574366491, 45.439167885014967 ] } },
{ "type": "Feature", "properties": { "PROGGEN": 2151, "GRADO": "Scuola primaria", "CODVIA": 4182, "TIPOVIA": "VIA", "NOMEVIA": "BONCOMPAGNI CARLO", "CIVICO": 18, "TIPO": "PARITARIA PRIVATA" }, "geometry": { "type": "Point", "coordinates": [ 9.22687784929226, 45.440082475606701 ] } },
{ "type": "Feature", "properties": { "PROGGEN": 2152, "GRADO": "Scuola primaria", "CODVIA": 4183, "TIPOVIA": "VIA", "NOMEVIA": "MARTINENGO FRANCESCO", "CIVICO": 34, "TIPO": "STATALE" }, "geometry": { "type": "Point", "coordinates": [ 9.227928716188446, 45.442911084335073 ] } },
{ "type": "Feature", "properties": { "PROGGEN": 2148, "GRADO": "Scuola primaria", "CODVIA": 4246, "TIPOVIA": "VIA", "NOMEVIA": "DEI BOGNETTI GIOV. E GIAMP.", "CIVICO": 15, "TIPO": "STATALE" }, "geometry": { "type": "Point", "coordinates": [ 9.19008578908522, 45.437917436360017 ] } },
{ "type": "Feature", "properties": { "PROGGEN": 2149, "GRADO": "Scuola primaria", "CODVIA": 4250, "TIPOVIA": "VIA", "NOMEVIA": "ANTONINI GIACOMO", "CIVICO": 50, "TIPO": "STATALE" }, "geometry": { "type": "Point", "coordinates": [ 9.194963549618521, 45.437079241191817 ] } },
{ "type": "Feature", "properties": { "PROGGEN": 2147, "GRADO": "Scuola primaria", "CODVIA": 4281, "TIPOVIA": "VIA", "NOMEVIA": "RAVENNA", "CIVICO": 15, "TIPO": "STATALE" }, "geometry": { "type": "Point", "coordinates": [ 9.221241534949783, 45.434094845289536 ] } },
{ "type": "Feature", "properties": { "PROGGEN": 2156, "GRADO": "Scuola primaria", "CODVIA": 4294, "TIPOVIA": "VIA", "NOMEVIA": "WOLF FERRARI ERMANNO", "CIVICO": 6, "TIPO": "STATALE" }, "geometry": { "type": "Point", "coordinates": [ 9.205035613763956, 45.43097574212522 ] } },
{ "type": "Feature", "properties": { "PROGGEN": 2154, "GRADO": "Scuola primaria", "CODVIA": 4364, "TIPOVIA": "VIA", "NOMEVIA": "MONTE PIANA", "CIVICO": 11, "TIPO": "STATALE" }, "geometry": { "type": "Point", "coordinates": [ 9.247073705575312, 45.430724350619407 ] } },
{ "type": "Feature", "properties": { "PROGGEN": 2003, "GRADO": "Scuola primaria", "CODVIA": 5092, "TIPOVIA": "VIA", "NOMEVIA": "ARIBERTO", "CIVICO": 14, "TIPO": "STATALE" }, "geometry": { "type": "Point", "coordinates": [ 9.173277608369986, 45.458854588010475 ] } },
{ "type": "Feature", "properties": { "PROGGEN": 2061, "GRADO": "Scuola primaria", "CODVIA": 5116, "TIPOVIA": "VIA", "NOMEVIA": "VIGEVANO", "CIVICO": 19, "TIPO": "STATALE" }, "geometry": { "type": "Point", "coordinates": [ 9.17352196566244, 45.452859393491877 ] } },
{ "type": "Feature", "properties": { "PROGGEN": 2059, "GRADO": "Scuola primaria", "CODVIA": 5130, "TIPOVIA": "VIA", "NOMEVIA": "BERGOGNONE", "CIVICO": 2, "TIPO": "STATALE" }, "geometry": { "type": "Point", "coordinates": [ 9.16166917708029, 45.456535355715175 ] } },
{ "type": "Feature", "properties": { "PROGGEN": 2180, "GRADO": "Scuola primaria", "CODVIA": 5137, "TIPOVIA": "VIA", "NOMEVIA": "VESPRI SICILIANI", "CIVICO": 55, "TIPO": "PARITARIA PRIVATA" }, "geometry": { "type": "Point", "coordinates": [ 9.146428341376192, 45.451725278255125 ] } },
{ "type": "Feature", "properties": { "PROGGEN": 2181, "GRADO": "Scuola primaria", "CODVIA": 5137, "TIPOVIA": "VIA", "NOMEVIA": "VESPRI SICILIANI", "CIVICO": 75, "TIPO": "STATALE" }, "geometry": { "type": "Point", "coordinates": [ 9.142543135305683, 45.450484842052738 ] } },
{ "type": "Feature", "properties": { "PROGGEN": 2058, "GRADO": "Scuola primaria", "CODVIA": 5143, "TIPOVIA": "VIA", "NOMEVIA": "DELLE FOPPETTE", "CIVICO": 1, "TIPO": "STATALE" }, "geometry": { "type": "Point", "coordinates": [ 9.155930128657129, 45.451294722139473 ] } },
{ "type": "Feature", "properties": { "PROGGEN": 2002, "GRADO": "Scuola primaria", "CODVIA": 5182, "TIPOVIA": "VIA", "NOMEVIA": "ARENA", "CIVICO": 13, "TIPO": "PARITARIA PRIVATA" }, "geometry": { "type": "Point", "coordinates": [ 9.179353402803427, 45.455871556392523 ] } },
{ "type": "Feature", "properties": { "PROGGEN": 2064, "GRADO": "Scuola primaria", "CODVIA": 5204, "TIPOVIA": "VIA", "NOMEVIA": "GENTILINO", "CIVICO": 14, "TIPO": "STATALE" }, "geometry": { "type": "Point", "coordinates": [ 9.182428353582173, 45.449088687480952 ] } },
{ "type": "Feature", "properties": { "PROGGEN": 2057, "GRADO": "Scuola primaria", "CODVIA": 5241, "TIPOVIA": "VIA", "NOMEVIA": "BRUNACCI VINCENZO", "CIVICO": 2, "TIPO": "STATALE" }, "geometry": { "type": "Point", "coordinates": [ 9.177359273740981, 45.444672370143536 ] } },
{ "type": "Feature", "properties": { "PROGGEN": 2166, "GRADO": "Scuola primaria", "CODVIA": 5248, "TIPOVIA": "VIA", "NOMEVIA": "CARCANO GIULIO", "CIVICO": 53, "TIPO": "PARITARIA PRIVATA" }, "geometry": { "type": "Point", "coordinates": [ 9.184129827407723, 45.439393673136337 ] } },
{ "type": "Feature", "properties": { "PROGGEN": 2161, "GRADO": "Scuola primaria", "CODVIA": 5261, "TIPOVIA": "VLE", "NOMEVIA": "GIOVANNI DA CERMENATE", "CIVICO": 4, "TIPO": "PARITARIA PRIVATA" }, "geometry": { "type": "Point", "coordinates": [ 9.176689399937111, 45.437295823758738 ] } },
{ "type": "Feature", "properties": { "PROGGEN": 2173, "GRADO": "Scuola primaria", "CODVIA": 5269, "TIPOVIA": "VIA", "NOMEVIA": "SALERNO", "CIVICO": 3, "TIPO": "STATALE" }, "geometry": { "type": "Point", "coordinates": [ 9.147537545016451, 45.43783176509428 ] } },
{ "type": "Feature", "properties": { "PROGGEN": 2169, "GRADO": "Scuola primaria", "CODVIA": 5294, "TIPOVIA": "VIA", "NOMEVIA": "PESTALOZZI G.E.", "CIVICO": 13, "TIPO": "STATALE" }, "geometry": { "type": "Point", "coordinates": [ 9.155322025959327, 45.445967109483433 ] } },
{ "type": "Feature", "properties": { "PROGGEN": 2162, "GRADO": "Scuola primaria", "CODVIA": 5313, "TIPOVIA": "VIA", "NOMEVIA": "SAN GIACOMO", "CIVICO": 1, "TIPO": "STATALE" }, "geometry": { "type": "Point", "coordinates": [ 9.173377490882327, 45.429406905182788 ] } },
{ "type": "Feature", "properties": { "PROGGEN": 2160, "GRADO": "Scuola primaria", "CODVIA": 5323, "TIPOVIA": "VIA", "NOMEVIA": "PALMIERI NICOLA", "CIVICO": 24, "TIPO": "STATALE" }, "geometry": { "type": "Point", "coordinates": [ 9.178426826610551, 45.434827646048021 ] } },
{ "type": "Feature", "properties": { "PROGGEN": 2313, "GRADO": "Scuola primaria", "CODVIA": 5323, "TIPOVIA": "VIA", "NOMEVIA": "PALMIERI NICOLA", "CIVICO": 72, "TIPO": "PARITARIA PRIVATA" }, "geometry": { "type": "Point", "coordinates": [ 9.18492785162697, 45.434767009167658 ] } },
{ "type": "Feature", "properties": { "PROGGEN": 2174, "GRADO": "Scuola primaria", "CODVIA": 5356, "TIPOVIA": "VIA", "NOMEVIA": "BARONA", "CIVICO": 70, "TIPO": "STATALE" }, "geometry": { "type": "Point", "coordinates": [ 9.147908033223585, 45.432202829369615 ] } },
{ "type": "Feature", "properties": { "PROGGEN": 2171, "GRADO": "Scuola primaria", "CODVIA": 5366, "TIPOVIA": "VIA", "NOMEVIA": "SAN COLOMBANO", "CIVICO": 8, "TIPO": "STATALE" }, "geometry": { "type": "Point", "coordinates": [ 9.126664404745183, 45.438655196323658 ] } },
{ "type": "Feature", "properties": { "PROGGEN": 2312, "GRADO": "Scuola primaria", "CODVIA": 5375, "TIPOVIA": "VIA", "NOMEVIA": "COTTOLENGO SAN GIUSEPPE", "CIVICO": 25, "TIPO": "PARITARIA PRIVATA" }, "geometry": { "type": "Point", "coordinates": [ 9.144572885904632, 45.441803709534142 ] } },
{ "type": "Feature", "properties": { "PROGGEN": 2309, "GRADO": "Scuola primaria", "CODVIA": 5405, "TIPOVIA": "VIA", "NOMEVIA": "BUSSOLA DIONIGI", "CIVICO": 9, "TIPO": "PRIVATA NON PARITARIA" }, "geometry": { "type": "Point", "coordinates": [ 9.157302083339941, 45.445304898693692 ] } },
{ "type": "Feature", "properties": { "PROGGEN": 2163, "GRADO": "Scuola primaria", "CODVIA": 5421, "TIPOVIA": "VIA", "NOMEVIA": "FERABOLI ACHILLE", "CIVICO": 44, "TIPO": "STATALE" }, "geometry": { "type": "Point", "coordinates": [ 9.170191199591693, 45.414699408794874 ] } },
{ "type": "Feature", "properties": { "PROGGEN": 2165, "GRADO": "Scuola primaria", "CODVIA": 5422, "TIPOVIA": "VIA", "NOMEVIA": "BARONI COSTANTINO", "CIVICO": 73, "TIPO": "STATALE" }, "geometry": { "type": "Point", "coordinates": [ 9.171574823089507, 45.406339635395845 ] } },
{ "type": "Feature", "properties": { "PROGGEN": 2167, "GRADO": "Scuola primaria", "CODVIA": 5425, "TIPOVIA": "VIA", "NOMEVIA": "SAN PAOLINO", "CIVICO": 4, "TIPO": "STATALE" }, "geometry": { "type": "Point", "coordinates": [ 9.163608741994883, 45.433092644344484 ] } },
{ "type": "Feature", "properties": { "PROGGEN": 2170, "GRADO": "Scuola primaria", "CODVIA": 5430, "TIPOVIA": "VIA", "NOMEVIA": "DE NICOLA ENRICO", "CIVICO": 2, "TIPO": "STATALE" }, "geometry": { "type": "Point", "coordinates": [ 9.154340010806989, 45.430825995355931 ] } },
{ "type": "Feature", "properties": { "PROGGEN": 2168, "GRADO": "Scuola primaria", "CODVIA": 5438, "TIPOVIA": "VIA", "NOMEVIA": "PESCARENICO", "CIVICO": 6, "TIPO": "STATALE" }, "geometry": { "type": "Point", "coordinates": [ 9.171694787373568, 45.432740424449669 ] } },
{ "type": "Feature", "properties": { "PROGGEN": 2164, "GRADO": "Scuola primaria", "CODVIA": 5439, "TIPOVIA": "VIA", "NOMEVIA": "DELL' ARCADIA", "CIVICO": 22, "TIPO": "STATALE" }, "geometry": { "type": "Point", "coordinates": [ 9.172713097433997, 45.418034047792851 ] } },
{ "type": "Feature", "properties": { "PROGGEN": 2172, "GRADO": "Scuola primaria", "CODVIA": 5447, "TIPOVIA": "VIA", "NOMEVIA": "BALSAMO CRIVELLI RICCARDO", "CIVICO": 3, "TIPO": "STATALE" }, "geometry": { "type": "Point", "coordinates": [ 9.137516058754455, 45.439083956429052 ] } },
{ "type": "Feature", "properties": { "PROGGEN": 2202, "GRADO": "Scuola primaria", "CODVIA": 6084, "TIPOVIA": "VIA", "NOMEVIA": "LAMENNAIS F R", "CIVICO": 20, "TIPO": "STATALE" }, "geometry": { "type": "Point", "coordinates": [ 9.11311218110451, 45.473712611606928 ] } },
{ "type": "Feature", "properties": { "PROGGEN": 2074, "GRADO": "Scuola primaria", "CODVIA": 6126, "TIPOVIA": "VIA", "NOMEVIA": "ZUARA", "CIVICO": 9, "TIPO": "STATALE" }, "geometry": { "type": "Point", "coordinates": [ 9.149334258859662, 45.456694867903181 ] } },
{ "type": "Feature", "properties": { "PROGGEN": 2008, "GRADO": "Scuola primaria", "CODVIA": 6163, "TIPOVIA": "VIA", "NOMEVIA": "FLLI RUFFINI", "CIVICO": 4, "TIPO": "STATALE" }, "geometry": { "type": "Point", "coordinates": [ 9.170251502083802, 45.466427100657917 ] } },
{ "type": "Feature", "properties": { "PROGGEN": 2007, "GRADO": "Scuola primaria", "CODVIA": 6175, "TIPOVIA": "PZA", "NOMEVIA": "TOMMASEO NICOLO'", "CIVICO": 1, "TIPO": "PARITARIA PRIVATA" }, "geometry": { "type": "Point", "coordinates": [ 9.167237762729387, 45.469577623920379 ] } },
{ "type": "Feature", "properties": { "PROGGEN": 2073, "GRADO": "Scuola primaria", "CODVIA": 6190, "TIPOVIA": "VIA", "NOMEVIA": "RASORI GIOVANNI", "CIVICO": 19, "TIPO": "STATALE" }, "geometry": { "type": "Point", "coordinates": [ 9.161322741706513, 45.467738655162044 ] } },
{ "type": "Feature", "properties": { "PROGGEN": 2025, "GRADO": "Scuola primaria", "CODVIA": 6220, "TIPOVIA": "VIA", "NOMEVIA": "DEGLI OLIVETANI", "CIVICO": 9, "TIPO": "STATALE" }, "geometry": { "type": "Point", "coordinates": [ 9.16877847424575, 45.461837636054916 ] } },
{ "type": "Feature", "properties": { "PROGGEN": 2066, "GRADO": "Scuola primaria", "CODVIA": 6243, "TIPOVIA": "VIA", "NOMEVIA": "ELBA", "CIVICO": 18, "TIPO": "PARITARIA PRIVATA" }, "geometry": { "type": "Point", "coordinates": [ 9.156724103492987, 45.464089459877293 ] } },
{ "type": "Feature", "properties": { "PROGGEN": 2067, "GRADO": "Scuola primaria", "CODVIA": 6253, "TIPOVIA": "VIA", "NOMEVIA": "BUONARROTI MICHELANGELO", "CIVICO": 49, "TIPO": "PARITARIA PRIVATA" }, "geometry": { "type": "Point", "coordinates": [ 9.155161629260949, 45.472682427148918 ] } },
{ "type": "Feature", "properties": { "PROGGEN": 2307, "GRADO": "Scuola primaria", "CODVIA": 6265, "TIPOVIA": "VIA", "NOMEVIA": "SARDEGNA", "CIVICO": 35, "TIPO": "PARITARIA PRIVATA" }, "geometry": { "type": "Point", "coordinates": [ 9.152156138223475, 45.462878684255557 ] } },
{ "type": "Feature", "properties": { "PROGGEN": 2065, "GRADO": "Scuola primaria", "CODVIA": 6266, "TIPOVIA": "PZA", "NOMEVIA": "SICILIA", "CIVICO": 2, "TIPO": "STATALE" }, "geometry": { "type": "Point", "coordinates": [ 9.153053846098119, 45.464832644610468 ] } },
{ "type": "Feature", "properties": { "PROGGEN": 2176, "GRADO": "Scuola primaria", "CODVIA": 6274, "TIPOVIA": "VIA", "NOMEVIA": "MASSAUA", "CIVICO": 5, "TIPO": "STATALE" }, "geometry": { "type": "Point", "coordinates": [ 9.148054146906793, 45.460640016936345 ] } },
{ "type": "Feature", "properties": { "PROGGEN": 2308, "GRADO": "Scuola primaria", "CODVIA": 6315, "TIPOVIA": "VIA", "NOMEVIA": "SAN GIUSTO", "CIVICO": 65, "TIPO": "COMUNALE" }, "geometry": { "type": "Point", "coordinates": [ 9.117948524168469, 45.47135055029208 ] } },
{ "type": "Feature", "properties": { "PROGGEN": 2218, "GRADO": "Scuola primaria", "CODVIA": 6323, "TIPOVIA": "VIA", "NOMEVIA": "MONTE BALDO", "CIVICO": 11, "TIPO": "STATALE" }, "geometry": { "type": "Point", "coordinates": [ 9.119221177792237, 45.475522549668909 ] } },
{ "type": "Feature", "properties": { "PROGGEN": 2201, "GRADO": "Scuola primaria", "CODVIA": 6330, "TIPOVIA": "VIA", "NOMEVIA": "AIRAGHI GAETANO", "CIVICO": 42, "TIPO": "STATALE" }, "geometry": { "type": "Point", "coordinates": [ 9.085309494533801, 45.475655961660863 ] } },
{ "type": "Feature", "properties": { "PROGGEN": 2076, "GRADO": "Scuola primaria", "CODVIA": 6353, "TIPOVIA": "VIA", "NOMEVIA": "LEONE XIII", "CIVICO": 12, "TIPO": "PARITARIA PRIVATA" }, "geometry": { "type": "Point", "coordinates": [ 9.163192749368871, 45.474263492489079 ] } },
{ "type": "Feature", "properties": { "PROGGEN": 2249, "GRADO": "Scuola primaria", "CODVIA": 6424, "TIPOVIA": "VIA", "NOMEVIA": "MELORIA", "CIVICO": 3, "TIPO": "PARITARIA PRIVATA" }, "geometry": { "type": "Point", "coordinates": [ 9.145517305637638, 45.482553707726737 ] } },
{ "type": "Feature", "properties": { "PROGGEN": 2220, "GRADO": "Scuola primaria", "CODVIA": 6441, "TIPOVIA": "PZA", "NOMEVIA": "SANTA MARIA NASCENTE", "CIVICO": 30, "TIPO": "STATALE" }, "geometry": { "type": "Point", "coordinates": [ 9.134069639115214, 45.48702789882698 ] } },
{ "type": "Feature", "properties": { "PROGGEN": 2217, "GRADO": "Scuola primaria", "CODVIA": 6445, "TIPOVIA": "VIA", "NOMEVIA": "TERRAGNI GIUSEPPE", "CIVICO": 36, "TIPO": "PARITARIA PRIVATA" }, "geometry": { "type": "Point", "coordinates": [ 9.133395425559502, 45.485874309674792 ] } },
{ "type": "Feature", "properties": { "PROGGEN": 2204, "GRADO": "Scuola primaria", "CODVIA": 6479, "TIPOVIA": "VIA", "NOMEVIA": "AROSIO", "CIVICO": 3, "TIPO": "PARITARIA PRIVATA" }, "geometry": { "type": "Point", "coordinates": [ 9.125304298258765, 45.473610273746722 ] } },
{ "type": "Feature", "properties": { "PROGGEN": 2222, "GRADO": "Scuola primaria", "CODVIA": 6483, "TIPOVIA": "VIA", "NOMEVIA": "GNOCCHI DON CARLO", "CIVICO": 25, "TIPO": "STATALE" }, "geometry": { "type": "Point", "coordinates": [ 9.124998533401101, 45.472478506133037 ] } },
{ "type": "Feature", "properties": { "PROGGEN": 2183, "GRADO": "Scuola primaria", "CODVIA": 6488, "TIPOVIA": "VIA", "NOMEVIA": "SCROSATI LUIGI", "CIVICO": 3, "TIPO": "STATALE" }, "geometry": { "type": "Point", "coordinates": [ 9.139654845602831, 45.453628279401656 ] } },
{ "type": "Feature", "properties": { "PROGGEN": 2224, "GRADO": "Scuola primaria", "CODVIA": 6504, "TIPOVIA": "VIA", "NOMEVIA": "LAVENO", "CIVICO": 12, "TIPO": "PRIVATA NON PARITARIA" }, "geometry": { "type": "Point", "coordinates": [ 9.138802504367371, 45.477210592080837 ] } },
{ "type": "Feature", "properties": { "PROGGEN": 2310, "GRADO": "Scuola primaria", "CODVIA": 6534, "TIPOVIA": "VIA", "NOMEVIA": "STRATICO SIMONE", "CIVICO": 7, "TIPO": "PRIVATA NON PARITARIA" }, "geometry": { "type": "Point", "coordinates": [ 9.135199938727729, 45.475838694067029 ] } },
{ "type": "Feature", "properties": { "PROGGEN": 2214, "GRADO": "Scuola primaria", "CODVIA": 6555, "TIPOVIA": "VIA", "NOMEVIA": "DOLCI CARLO", "CIVICO": 5, "TIPO": "STATALE" }, "geometry": { "type": "Point", "coordinates": [ 9.142975436830712, 45.47196453219334 ] } },
{ "type": "Feature", "properties": { "PROGGEN": 2223, "GRADO": "Scuola primaria", "CODVIA": 6570, "TIPOVIA": "VIA", "NOMEVIA": "ZAMAGNA BERNARDO", "CIVICO": 18, "TIPO": "PARITARIA PRIVATA" }, "geometry": { "type": "Point", "coordinates": [ 9.133868258206117, 45.474991463902136 ] } },
{ "type": "Feature", "properties": { "PROGGEN": 2215, "GRADO": "Scuola primaria", "CODVIA": 6571, "TIPOVIA": "VIA", "NOMEVIA": "PARAVIA PIER ALESSANDRO", "CIVICO": 5, "TIPO": "PRIVATA NON PARITARIA" }, "geometry": { "type": "Point", "coordinates": [ 9.127844963573819, 45.469556786486081 ] } },
{ "type": "Feature", "properties": { "PROGGEN": 2221, "GRADO": "Scuola primaria", "CODVIA": 6571, "TIPOVIA": "VIA", "NOMEVIA": "PARAVIA PIER ALESSANDRO", "CIVICO": 83, "TIPO": "STATALE" }, "geometry": { "type": "Point", "coordinates": [ 9.135582485512673, 45.474557758919417 ] } },
{ "type": "Feature", "properties": { "PROGGEN": 2300, "GRADO": "Scuola primaria", "CODVIA": 6575, "TIPOVIA": "VIA", "NOMEVIA": "CAPECELATRO ALFONSO", "CIVICO": 66, "TIPO": "STATALE" }, "geometry": { "type": "Point", "coordinates": [ 9.127241300954491, 45.473355884974872 ] } },
{ "type": "Feature", "properties": { "PROGGEN": 2198, "GRADO": "Scuola primaria", "CODVIA": 6581, "TIPOVIA": "VIA", "NOMEVIA": "VALDAGNO", "CIVICO": 8, "TIPO": "STATALE" }, "geometry": { "type": "Point", "coordinates": [ 9.112388604186489, 45.461296196804746 ] } },
{ "type": "Feature", "properties": { "PROGGEN": 2200, "GRADO": "Scuola primaria", "CODVIA": 6624, "TIPOVIA": "VIA", "NOMEVIA": "NOVARA", "CIVICO": 540, "TIPO": "PARITARIA PRIVATA" }, "geometry": { "type": "Point", "coordinates": [ 9.072042309844688, 45.48963631053028 ] } },
{ "type": "Feature", "properties": { "PROGGEN": 2192, "GRADO": "Scuola primaria", "CODVIA": 6634, "TIPOVIA": "VIA", "NOMEVIA": "GULLI TOMMASO", "CIVICO": 14, "TIPO": "PARITARIA PRIVATA" }, "geometry": { "type": "Point", "coordinates": [ 9.134547708744288, 45.465304273399937 ] } },
{ "type": "Feature", "properties": { "PROGGEN": 2158, "GRADO": "Scuola primaria", "CODVIA": 6643, "TIPOVIA": "VIA", "NOMEVIA": "DELLE FORZE ARMATE", "CIVICO": 61, "TIPO": "PARITARIA PRIVATA" }, "geometry": { "type": "Point", "coordinates": [ 9.130617272634709, 45.46290654118669 ] } },
{ "type": "Feature", "properties": { "PROGGEN": 2191, "GRADO": "Scuola primaria", "CODVIA": 6643, "TIPOVIA": "VIA", "NOMEVIA": "DELLE FORZE ARMATE", "CIVICO": 65, "TIPO": "STATALE" }, "geometry": { "type": "Point", "coordinates": [ 9.129746905567465, 45.462906990503491 ] } },
{ "type": "Feature", "properties": { "PROGGEN": 2188, "GRADO": "Scuola primaria", "CODVIA": 6643, "TIPOVIA": "VIA", "NOMEVIA": "DELLE FORZE ARMATE", "CIVICO": 279, "TIPO": "STATALE" }, "geometry": { "type": "Point", "coordinates": [ 9.103444878789524, 45.458970068562927 ] } },
{ "type": "Feature", "properties": { "PROGGEN": 2177, "GRADO": "Scuola primaria", "CODVIA": 6663, "TIPOVIA": "VIA", "NOMEVIA": "PISA UGO", "CIVICO": 1, "TIPO": "STATALE" }, "geometry": { "type": "Point", "coordinates": [ 9.121026004294599, 45.453216936533003 ] } },
{ "type": "Feature", "properties": { "PROGGEN": 2185, "GRADO": "Scuola primaria", "CODVIA": 6672, "TIPOVIA": "VIA", "NOMEVIA": "INGANNI ANGELO", "CIVICO": 12, "TIPO": "PARITARIA PRIVATA" }, "geometry": { "type": "Point", "coordinates": [ 9.127769874588687, 45.447698093173763 ] } },
{ "type": "Feature", "properties": { "PROGGEN": 2186, "GRADO": "Scuola primaria", "CODVIA": 6686, "TIPOVIA": "VIA", "NOMEVIA": "DEI NARCISI", "CIVICO": 2, "TIPO": "STATALE" }, "geometry": { "type": "Point", "coordinates": [ 9.128671686741137, 45.450107293533605 ] } },
{ "type": "Feature", "properties": { "PROGGEN": 2314, "GRADO": "Scuola primaria", "CODVIA": 6690, "TIPOVIA": "VIA", "NOMEVIA": "CASCINA CORBA", "CIVICO": 97, "TIPO": "PARITARIA PRIVATA" }, "geometry": { "type": "Point", "coordinates": [ 9.127209800106309, 45.451159528376344 ] } },
{ "type": "Feature", "properties": { "PROGGEN": 2195, "GRADO": "Scuola primaria", "CODVIA": 6699, "TIPOVIA": "VIA", "NOMEVIA": "PALMI", "CIVICO": 25, "TIPO": "PARITARIA PRIVATA" }, "geometry": { "type": "Point", "coordinates": [ 9.098314395857125, 45.458513326685861 ] } },
{ "type": "Feature", "properties": { "PROGGEN": 2187, "GRADO": "Scuola primaria", "CODVIA": 6712, "TIPOVIA": "VIA", "NOMEVIA": "VITERBO", "CIVICO": 31, "TIPO": "STATALE" }, "geometry": { "type": "Point", "coordinates": [ 9.107682274087669, 45.456110587616649 ] } },
{ "type": "Feature", "properties": { "PROGGEN": 2178, "GRADO": "Scuola primaria", "CODVIA": 6718, "TIPOVIA": "VIA", "NOMEVIA": "DEGLI ANEMONI", "CIVICO": 8, "TIPO": "STATALE" }, "geometry": { "type": "Point", "coordinates": [ 9.130505439121599, 45.455718761760544 ] } },
{ "type": "Feature", "properties": { "PROGGEN": 2208, "GRADO": "Scuola primaria", "CODVIA": 6732, "TIPOVIA": "VIA", "NOMEVIA": "SILLA LUCIO CORNELIO", "CIVICO": 150, "TIPO": "STATALE" }, "geometry": { "type": "Point", "coordinates": [ 9.077149756749291, 45.493959895166675 ] } },
{ "type": "Feature", "properties": { "PROGGEN": 2207, "GRADO": "Scuola primaria", "CODVIA": 6749, "TIPOVIA": "VIA", "NOMEVIA": "VISCONTINI MATILDE", "CIVICO": 7, "TIPO": "STATALE" }, "geometry": { "type": "Point", "coordinates": [ 9.106058451127337, 45.490732224603413 ] } },
{ "type": "Feature", "properties": { "PROGGEN": 2196, "GRADO": "Scuola primaria", "CODVIA": 6752, "TIPOVIA": "VIA", "NOMEVIA": "VAL D'INTELVI", "CIVICO": 11, "TIPO": "STATALE" }, "geometry": { "type": "Point", "coordinates": [ 9.087338510286108, 45.460495734525338 ] } },
{ "type": "Feature", "properties": { "PROGGEN": 2190, "GRADO": "Scuola primaria", "CODVIA": 6782, "TIPOVIA": "VIA", "NOMEVIA": "ANSELMO DA BAGGIO", "CIVICO": 60, "TIPO": "STATALE" }, "geometry": { "type": "Point", "coordinates": [ 9.087245591914012, 45.464078573002475 ] } },
{ "type": "Feature", "properties": { "PROGGEN": 2182, "GRADO": "Scuola primaria", "CODVIA": 6810, "TIPOVIA": "VIA", "NOMEVIA": "MAYER SALLY", "CIVICO": 4, "TIPO": "PARITARIA PRIVATA" }, "geometry": { "type": "Point", "coordinates": [ 9.137668543099808, 45.455795254043302 ] } },
{ "type": "Feature", "properties": { "PROGGEN": 2193, "GRADO": "Scuola primaria", "CODVIA": 6829, "TIPOVIA": "VIA", "NOMEVIA": "DEI SALICI", "CIVICO": 2, "TIPO": "STATALE" }, "geometry": { "type": "Point", "coordinates": [ 9.080817404776459, 45.451919019498945 ] } },
{ "type": "Feature", "properties": { "PROGGEN": 2213, "GRADO": "Scuola primaria", "CODVIA": 7074, "TIPOVIA": "VIA", "NOMEVIA": "BROCCHI VIRGILIO", "CIVICO": 5, "TIPO": "STATALE" }, "geometry": { "type": "Point", "coordinates": [ 9.120084819405266, 45.492820605012973 ] } },
{ "type": "Feature", "properties": { "PROGGEN": 2014, "GRADO": "Scuola primaria", "CODVIA": 7082, "TIPOVIA": "VIA", "NOMEVIA": "LEGNANO", "CIVICO": 24, "TIPO": "PRIVATA NON PARITARIA" }, "geometry": { "type": "Point", "coordinates": [ 9.181721439809508, 45.476173984341486 ] } },
{ "type": "Feature", "properties": { "PROGGEN": 2072, "GRADO": "Scuola primaria", "CODVIA": 7127, "TIPOVIA": "VIA", "NOMEVIA": "GIUSTI GIUSEPPE", "CIVICO": 15, "TIPO": "STATALE" }, "geometry": { "type": "Point", "coordinates": [ 9.176681677748652, 45.479992809249403 ] } },
{ "type": "Feature", "properties": { "PROGGEN": 2069, "GRADO": "Scuola primaria", "CODVIA": 7136, "TIPOVIA": "VIA", "NOMEVIA": "MOSCATI PIETRO", "CIVICO": 1, "TIPO": "STATALE" }, "geometry": { "type": "Point", "coordinates": [ 9.168989209632544, 45.478997349260567 ] } },
{ "type": "Feature", "properties": { "PROGGEN": 2234, "GRADO": "Scuola primaria", "CODVIA": 7156, "TIPOVIA": "VIA", "NOMEVIA": "GATTAMELATA", "CIVICO": 35, "TIPO": "STATALE" }, "geometry": { "type": "Point", "coordinates": [ 9.151875135101195, 45.483816885236266 ] } },
{ "type": "Feature", "properties": { "PROGGEN": 2301, "GRADO": "Scuola primaria", "CODVIA": 7158, "TIPOVIA": "VIA", "NOMEVIA": "COLONNA MARCANTONIO", "CIVICO": 24, "TIPO": "PARITARIA PRIVATA" }, "geometry": { "type": "Point", "coordinates": [ 9.153554790247474, 45.486489288343208 ] } },
{ "type": "Feature", "properties": { "PROGGEN": 2216, "GRADO": "Scuola primaria", "CODVIA": 7178, "TIPOVIA": "VIA", "NOMEVIA": "BARTOLINI LORENZO", "CIVICO": 46, "TIPO": "PARITARIA PRIVATA" }, "geometry": { "type": "Point", "coordinates": [ 9.152322347847488, 45.49214377648206 ] } },
{ "type": "Feature", "properties": { "PROGGEN": 2071, "GRADO": "Scuola primaria", "CODVIA": 7203, "TIPOVIA": "VIA", "NOMEVIA": "MANTEGNA ANDREA", "CIVICO": 10, "TIPO": "STATALE" }, "geometry": { "type": "Point", "coordinates": [ 9.16794971407934, 45.483531780260329 ] } },
{ "type": "Feature", "properties": { "PROGGEN": 2070, "GRADO": "Scuola primaria", "CODVIA": 7212, "TIPOVIA": "VIA", "NOMEVIA": "MONVISO", "CIVICO": 33, "TIPO": "PARITARIA PRIVATA" }, "geometry": { "type": "Point", "coordinates": [ 9.170224286777298, 45.485959407192254 ] } },
{ "type": "Feature", "properties": { "PROGGEN": 2231, "GRADO": "Scuola primaria", "CODVIA": 7221, "TIPOVIA": "VIA", "NOMEVIA": "MAC MAHON", "CIVICO": 100, "TIPO": "STATALE" }, "geometry": { "type": "Point", "coordinates": [ 9.156024386342605, 45.49555353559925 ] } },
{ "type": "Feature", "properties": { "PROGGEN": 2233, "GRADO": "Scuola primaria", "CODVIA": 7247, "TIPOVIA": "VIA", "NOMEVIA": "TRANCHEDINI NICODEMO", "CIVICO": 4, "TIPO": "PARITARIA PRIVATA" }, "geometry": { "type": "Point", "coordinates": [ 9.151868221393949, 45.482335781209237 ] } },
{ "type": "Feature", "properties": { "PROGGEN": 2229, "GRADO": "Scuola primaria", "CODVIA": 7278, "TIPOVIA": "VIA", "NOMEVIA": "CONSOLE MARCELLO", "CIVICO": 9, "TIPO": "STATALE" }, "geometry": { "type": "Point", "coordinates": [ 9.148749977084616, 45.498711532703162 ] } },
{ "type": "Feature", "properties": { "PROGGEN": 2232, "GRADO": "Scuola primaria", "CODVIA": 7293, "TIPOVIA": "VIA", "NOMEVIA": "DE PREDIS GIOVANNI AMBROGIO", "CIVICO": 8, "TIPO": "PARITARIA PRIVATA" }, "geometry": { "type": "Point", "coordinates": [ 9.151346878602562, 45.497447813589474 ] } },
{ "type": "Feature", "properties": { "PROGGEN": 2230, "GRADO": "Scuola primaria", "CODVIA": 7308, "TIPOVIA": "VIA", "NOMEVIA": "CASTELLINO DA CASTELLO", "CIVICO": 10, "TIPO": "STATALE" }, "geometry": { "type": "Point", "coordinates": [ 9.15843200946281, 45.496277372256884 ] } },
{ "type": "Feature", "properties": { "PROGGEN": 2243, "GRADO": "Scuola primaria", "CODVIA": 7338, "TIPOVIA": "VIA", "NOMEVIA": "GRAF ARTURO", "CIVICO": 70, "TIPO": "STATALE" }, "geometry": { "type": "Point", "coordinates": [ 9.145627601101081, 45.512786561141326 ] } },
{ "type": "Feature", "properties": { "PROGGEN": 2242, "GRADO": "Scuola primaria", "CODVIA": 7367, "TIPOVIA": "VIA", "NOMEVIA": "TRILUSSA", "CIVICO": 10, "TIPO": "STATALE" }, "geometry": { "type": "Point", "coordinates": [ 9.138506712875179, 45.514451254886019 ] } },
{ "type": "Feature", "properties": { "PROGGEN": 2237, "GRADO": "Scuola primaria", "CODVIA": 7392, "TIPOVIA": "VIA", "NOMEVIA": "AMPEZZO", "CIVICO": 8, "TIPO": "PARITARIA PRIVATA" }, "geometry": { "type": "Point", "coordinates": [ 9.140470837429993, 45.497036153055504 ] } },
{ "type": "Feature", "properties": { "PROGGEN": 2236, "GRADO": "Scuola primaria", "CODVIA": 7401, "TIPOVIA": "VIA", "NOMEVIA": "DE ROSSI GIOVANNI BATTISTA", "CIVICO": 2, "TIPO": "STATALE" }, "geometry": { "type": "Point", "coordinates": [ 9.140799740051683, 45.501092214638 ] } },
{ "type": "Feature", "properties": { "PROGGEN": 2240, "GRADO": "Scuola primaria", "CODVIA": 7413, "TIPOVIA": "VIA", "NOMEVIA": "GAREGNANO", "CIVICO": 10, "TIPO": "PARITARIA PRIVATA" }, "geometry": { "type": "Point", "coordinates": [ 9.128895515558316, 45.50146559591365 ] } },
{ "type": "Feature", "properties": { "PROGGEN": 2239, "GRADO": "Scuola primaria", "CODVIA": 7440, "TIPOVIA": "VIA", "NOMEVIA": "PARETO VILFREDO", "CIVICO": 26, "TIPO": "STATALE" }, "geometry": { "type": "Point", "coordinates": [ 9.126025072505383, 45.502662317883349 ] } },
{ "type": "Feature", "properties": { "PROGGEN": 2305, "GRADO": "Scuola primaria", "CODVIA": 7475, "TIPOVIA": "VIA", "NOMEVIA": "CITTADINI PIER FRANCESCO", "CIVICO": 5, "TIPO": "PARITARIA PRIVATA" }, "geometry": { "type": "Point", "coordinates": [ 9.126994916904662, 45.513728052045543 ] } },
{ "type": "Feature", "properties": { "PROGGEN": 2212, "GRADO": "Scuola primaria", "CODVIA": 7478, "TIPOVIA": "VIA", "NOMEVIA": "QUARENGHI GIACOMO", "CIVICO": 10, "TIPO": "STATALE" }, "geometry": { "type": "Point", "coordinates": [ 9.12078017424883, 45.494584425045986 ] } },
{ "type": "Feature", "properties": { "PROGGEN": 2235, "GRADO": "Scuola primaria", "CODVIA": 7486, "TIPOVIA": "VIA", "NOMEVIA": "MAGREGLIO", "CIVICO": 1, "TIPO": "STATALE" }, "geometry": { "type": "Point", "coordinates": [ 9.132961932904907, 45.495953480345499 ] } },
{ "type": "Feature", "properties": { "PROGGEN": 2228, "GRADO": "Scuola primaria", "CODVIA": 7489, "TIPOVIA": "VIA", "NOMEVIA": "VAL LAGARINA", "CIVICO": 44, "TIPO": "STATALE" }, "geometry": { "type": "Point", "coordinates": [ 9.135274476550389, 45.520828637292347 ] } },
{ "type": "Feature", "properties": { "PROGGEN": 2211, "GRADO": "Scuola primaria", "CODVIA": 7496, "TIPOVIA": "VIA", "NOMEVIA": "DELLE ANDE", "CIVICO": 4, "TIPO": "STATALE" }, "geometry": { "type": "Point", "coordinates": [ 9.124973896825795, 45.494263856987651 ] } },
{ "type": "Feature", "properties": { "PROGGEN": 2205, "GRADO": "Scuola primaria", "CODVIA": 7523, "TIPOVIA": "VIA", "NOMEVIA": "BORSA MARIO", "CIVICO": 26, "TIPO": "STATALE" }, "geometry": { "type": "Point", "coordinates": [ 9.103011712325394, 45.501926135569398 ] } },
{ "type": "Feature", "properties": { "PROGGEN": 2210, "GRADO": "Scuola primaria", "CODVIA": 7526, "TIPOVIA": "VIA", "NOMEVIA": "CILEA FRANCESCO", "CIVICO": 12, "TIPO": "STATALE" }, "geometry": { "type": "Point", "coordinates": [ 9.105235987199638, 45.497086365657466 ] } },
{ "type": "Feature", "properties": { "PROGGEN": 2206, "GRADO": "Scuola primaria", "CODVIA": 7529, "TIPOVIA": "VIA", "NOMEVIA": "VISCONTI ALEX", "CIVICO": 16, "TIPO": "STATALE" }, "geometry": { "type": "Point", "coordinates": [ 9.100211492715294, 45.503780160755589 ] } },
{ "type": "Feature", "properties": { "PROGGEN": 2126, "GRADO": "Scuola primaria", "CODVIA": 3235, "TIPOVIA": "VIA", "NOMEVIA": "TAJANI FILIPPO", "CIVICO": 12, "TIPO": "STATALE" }, "geometry": { "type": "Point", "coordinates": [ 9.236819668297743, 45.472564116658745 ] } },
{ "type": "Feature", "properties": { "PROGGEN": 2099, "GRADO": "Scuola primaria", "CODVIA": 1712, "TIPOVIA": "VIA", "NOMEVIA": "SBARBARO CAMILLO", "CIVICO": 2, "TIPO": "PARITARIA PRIVATA" }, "geometry": { "type": "Point", "coordinates": [ 9.179365043350382, 45.516548136720573 ] } },
{ "type": "Feature", "properties": { "PROGGEN": 2227, "GRADO": "Scuola primaria", "CODVIA": 7475, "TIPOVIA": "VIA", "NOMEVIA": "CITTADINI PIER FRANCESCO", "CIVICO": 9, "TIPO": "STATALE" }, "geometry": { "type": "Point", "coordinates": [ 9.129815112873992, 45.514194289377158 ] } },
{ "type": "Feature", "properties": { "PROGGEN": 2189, "GRADO": "Scuola primaria", "CODVIA": 6715, "TIPOVIA": "VIA", "NOMEVIA": "MUGGIANO", "CIVICO": 14, "TIPO": "STATALE" }, "geometry": { "type": "Point", "coordinates": [ 9.071735983843066, 45.447566166416529 ] } },
{ "type": "Feature", "properties": { "PROGGEN": 2304, "GRADO": "Scuola primaria", "CODVIA": 4198, "TIPOVIA": "VIA", "NOMEVIA": "CAVIGLIA ENRICO", "CIVICO": 1, "TIPO": "PARITARIA PRIVATA" }, "geometry": { "type": "Point", "coordinates": [ 9.229883371684243, 45.444103278157719 ] } },
{ "type": "Feature", "properties": { "PROGGEN": 2034, "GRADO": "Scuola primaria", "CODVIA": 1108, "TIPOVIA": "VIA", "NOMEVIA": "GIOIA MELCHIORRE", "CIVICO": 42, "TIPO": "PARITARIA PRIVATA" }, "geometry": { "type": "Point", "coordinates": [ 9.19913518802856, 45.487633828987946 ] } },
{ "type": "Feature", "properties": { "PROGGEN": 2009, "GRADO": "Scuola primaria", "CODVIA": 226, "TIPOVIA": "VIA", "NOMEVIA": "DELLA SPIGA", "CIVICO": 29, "TIPO": "STATALE" }, "geometry": { "type": "Point", "coordinates": [ 9.195661368483169, 45.471125735972613 ] } },
{ "type": "Feature", "properties": { "PROGGEN": 2016, "GRADO": "Scuola primaria", "CODVIA": 402, "TIPOVIA": "CSO", "NOMEVIA": "PORTA ROMANA", "CIVICO": 105, "TIPO": "PARITARIA PRIVATA" }, "geometry": { "type": "Point", "coordinates": [ 9.198924078113178, 45.454276043388361 ] } },
{ "type": "Feature", "properties": { "PROGGEN": 2022, "GRADO": "Scuola primaria", "CODVIA": 554, "TIPOVIA": "VIA", "NOMEVIA": "LANZONE", "CIVICO": 53, "TIPO": "PARITARIA PRIVATA" }, "geometry": { "type": "Point", "coordinates": [ 9.174576509185156, 45.461511292743829 ] } },
{ "type": "Feature", "properties": { "PROGGEN": 2024, "GRADO": "Scuola primaria", "CODVIA": 587, "TIPOVIA": "VIA", "NOMEVIA": "CROCEFISSO", "CIVICO": 15, "TIPO": "STATALE" }, "geometry": { "type": "Point", "coordinates": [ 9.185884432201831, 45.456949944250077 ] } },
{ "type": "Feature", "properties": { "PROGGEN": 2006, "GRADO": "Scuola primaria", "CODVIA": 604, "TIPOVIA": "CSO", "NOMEVIA": "MAGENTA", "CIVICO": 71, "TIPO": "PARITARIA PRIVATA" }, "geometry": { "type": "Point", "coordinates": [ 9.169772280152253, 45.465581536709877 ] } },
{ "type": "Feature", "properties": { "PROGGEN": 2005, "GRADO": "Scuola primaria", "CODVIA": 647, "TIPOVIA": "VIA", "NOMEVIA": "SAN VITTORE", "CIVICO": 29, "TIPO": "PARITARIA PRIVATA" }, "geometry": { "type": "Point", "coordinates": [ 9.169632334392224, 45.463443146566412 ] } },
{ "type": "Feature", "properties": { "PROGGEN": 2023, "GRADO": "Scuola primaria", "CODVIA": 649, "TIPOVIA": "VIA", "NOMEVIA": "SANT' ORSOLA", "CIVICO": 15, "TIPO": "STATALE" }, "geometry": { "type": "Point", "coordinates": [ 9.180514721398627, 45.46258863905971 ] } },
{ "type": "Feature", "properties": { "PROGGEN": 2311, "GRADO": "Scuola primaria", "CODVIA": 3297, "TIPOVIA": "VIA", "NOMEVIA": "SAN MARTINO DON CARLO", "CIVICO": 8, "TIPO": "PRIVATA NON PARITARIA" }, "geometry": { "type": "Point", "coordinates": [ 9.235259316313522, 45.467847115278758 ] } },
{ "type": "Feature", "properties": { "PROGGEN": 2115, "GRADO": "Scuola primaria", "CODVIA": 2206, "TIPOVIA": "VIA", "NOMEVIA": "ZANOIA GIUSEPPE", "CIVICO": 1, "TIPO": "PARITARIA PRIVATA" }, "geometry": { "type": "Point", "coordinates": [ 9.229606214073492, 45.481134905481426 ] } },
{ "type": "Feature", "properties": { "PROGGEN": 2121, "GRADO": "Scuola primaria", "CODVIA": 3316, "TIPOVIA": "PZA", "NOMEVIA": "SAN GEROLAMO", "CIVICO": 6, "TIPO": "PRIVATA NON PARITARIA" }, "geometry": { "type": "Point", "coordinates": [ 9.236813731439593, 45.469416115175221 ] } }
]
}
